[
  { "name": "Sausalito", "lat": 37.8591, "lng": -122.4853 },
  { "name": "Daly City", "lat": 37.6879, "lng": -122.4702 },
  { "name": "Dublin", "lat": 37.7021, "lng": -121.9358 },
  { "name": "San Jose", "lat": 37.3382, "lng": -121.8863 },
  { "name": "Oakland", "lat": 37.8044, "lng": -122.2712 },
  { "name": "Berkeley", "lat": 37.8715, "lng": -122.273 },
  { "name": "Fremont", "lat": 37.5483, "lng": -121.9886 },
  { "name": "Palo Alto", "lat": 37.4419, "lng": -122.143 },
  { "name": "Stanford", "lat": 37.4275, "lng": -122.1697 },
  { "name": "Mountain View", "lat": 37.3861, "lng": -122.0839 },
  { "name": "Cupertino", "lat": 37.322, "lng": -122.0322 },
  { "name": "Sunnyvale", "lat": 37.3688, "lng": -122.0363 },
  { "name": "Redwood City", "lat": 37.4852, "lng": -122.2364 },
  { "name": "San Mateo", "lat": 37.563, "lng": -122.3255 },
  { "name": "South San Francisco", "lat": 37.6547, "lng": -122.4077 },
  { "name": "Pacifica", "lat": 37.6138, "lng": -122.4869 },
  { "name": "Half Moon Bay", "lat": 37.4636, "lng": -122.4286 },
  { "name": "Alcatraz Island", "lat": 37.8267, "lng": -122.423 },
  { "name": "Treasure Island", "lat": 37.8224, "lng": -122.3706 },
  { "name": "Richmond District", "lat": 37.7799, "lng": -122.485 },
  { "name": "Sunset District", "lat": 37.7489, "lng": -122.4941 },
  { "name": "Mission District", "lat": 37.7599, "lng": -122.4148 },
  { "name": "Tenderloin", "lat": 37.7831, "lng": -122.4177 },
  { "name": "Nob Hill", "lat": 37.793, "lng": -122.4162 },
  { "name": "North Beach", "lat": 37.8061, "lng": -122.4108 },
  { "name": "SoMa", "lat": 37.7786, "lng": -122.4051 },
  { "name": "Financial District", "lat": 37.7946, "lng": -122.3999 },
  { "name": "Chinatown", "lat": 37.7941, "lng": -122.4078 },
  { "name": "Haight-Ashbury", "lat": 37.769, "lng": -122.4469 },
  { "name": "Castro", "lat": 37.7609, "lng": -122.435 },
  { "name": "Noe Valley", "lat": 37.7504, "lng": -122.4337 },
  { "name": "Potrero Hill", "lat": 37.7597, "lng": -122.397 },
  { "name": "Dogpatch", "lat": 37.7564, "lng": -122.3917 },
  { "name": "Hayes Valley", "lat": 37.7761, "lng": -122.4241 },
  { "name": "Marina District", "lat": 37.8037, "lng": -122.4368 },
  { "name": "Presidio", "lat": 37.7989, "lng": -122.4662 },
  { "name": "Golden Gate Park", "lat": 37.7694, "lng": -122.4862 },
  { "name": "Glen Park", "lat": 37.7331, "lng": -122.4343 },
  { "name": "Outer Richmond", "lat": 37.7798, "lng": -122.5039 },
  { "name": "Inner Sunset", "lat": 37.7621, "lng": -122.4663 },
  { "name": "Pacific Heights", "lat": 37.7924, "lng": -122.4382 },
  { "name": "Embarcadero", "lat": 37.795, "lng": -122.3937 },
  { "name": "Fisherman's Wharf", "lat": 37.808, "lng": -122.4177 },
  { "name": "Union Square", "lat": 37.7879, "lng": -122.4074 },
  { "name": "Walnut Creek", "lat": 37.9101, "lng": -122.0652 },
  { "name": "Pleasanton", "lat": 37.6624, "lng": -121.8747 },
  { "name": "Livermore", "lat": 37.6819, "lng": -121.768 },
  { "name": "Hayward", "lat": 37.6688, "lng": -122.0808 },
  { "name": "San Leandro", "lat": 37.7249, "lng": -122.1561 },
  { "name": "Milpitas", "lat": 37.4323, "lng": -121.8996 }
]
