[
  { "name": "Downtown Nashville", "lat": 36.1627, "lng": -86.7816 },
  { "name": "The Gulch", "lat": 36.1526, "lng": -86.7834 },
  { "name": "Music Row", "lat": 36.1517, "lng": -86.7915 },
  { "name": "Vanderbilt University", "lat": 36.1447, "lng": -86.8027 },
  { "name": "Belmont University", "lat": 36.1335, "lng": -86.796 },
  { "name": "Hillsboro Village", "lat": 36.1362, "lng": -86.8008 },
  { "name": "12 South", "lat": 36.1255, "lng": -86.7925 },
  { "name": "Sylvan Park", "lat": 36.1453, "lng": -86.8415 },
  { "name": "West End", "lat": 36.1467, "lng": -86.8163 },
  { "name": "Midtown", "lat": 36.1512, "lng": -86.8034 },
  { "name": "Green Hills", "lat": 36.1047, "lng": -86.8143 },
  { "name": "Berry Hill", "lat": 36.1205, "lng": -86.7694 },
  { "name": "East Nashville", "lat": 36.1766, "lng": -86.736 },
  { "name": "Five Points (East)", "lat": 36.1774, "lng": -86.7416 },
  { "name": "Germantown", "lat": 36.1801, "lng": -86.7899 },
  { "name": "Nissan Stadium", "lat": 36.1665, "lng": -86.7713 },
  { "name": "Bridgestone Arena", "lat": 36.1591, "lng": -86.7786 },
  { "name": "Ryman Auditorium", "lat": 36.1615, "lng": -86.778 },
  { "name": "Country Music Hall of Fame", "lat": 36.1589, "lng": -86.7761 },
  { "name": "Bicentennial Capitol Mall Park", "lat": 36.1745, "lng": -86.7875 },
  { "name": "Nashville Zoo at Grassmere", "lat": 36.0893, "lng": -86.747 },
  { "name": "Opryland Resort", "lat": 36.21, "lng": -86.6936 },
  { "name": "Grand Ole Opry House", "lat": 36.2068, "lng": -86.692 },
  { "name": "The Hermitage (Andrew Jackson)", "lat": 36.2152, "lng": -86.6129 },
  { "name": "Donelson", "lat": 36.1704, "lng": -86.6666 },
  { "name": "Hermitage", "lat": 36.1946, "lng": -86.6189 },
  { "name": "Antioch", "lat": 36.0534, "lng": -86.6511 },
  { "name": "Brentwood", "lat": 36.032, "lng": -86.7828 },
  { "name": "Cool Springs", "lat": 35.9495, "lng": -86.8184 },
  { "name": "Franklin", "lat": 35.9251, "lng": -86.8689 },
  { "name": "Arrington Vineyards", "lat": 35.875, "lng": -86.7138 },
  { "name": "Leipers Fork", "lat": 35.882, "lng": -86.9816 },
  { "name": "Nolensville", "lat": 35.9537, "lng": -86.6694 },
  { "name": "La Vergne", "lat": 36.0159, "lng": -86.5612 },
  { "name": "Smyrna", "lat": 35.9828, "lng": -86.5186 },
  { "name": "Murfreesboro", "lat": 35.8456, "lng": -86.3903 },
  { "name": "Mt. Juliet", "lat": 36.2003, "lng": -86.5264 },
  { "name": "Lebanon", "lat": 36.2081, "lng": -86.2911 },
  { "name": "Hendersonville", "lat": 36.3048, "lng": -86.619 },
  { "name": "Gallatin", "lat": 36.3884, "lng": -86.4467 },
  { "name": "Goodlettsville", "lat": 36.3237, "lng": -86.7133 },
  { "name": "Madison", "lat": 36.256, "lng": -86.7135 },
  { "name": "Old Hickory", "lat": 36.2562, "lng": -86.6489 },
  { "name": "Bellevue", "lat": 36.0831, "lng": -86.2928 },
  {
    "name": "Percy Priest Lake (Anderson Road)",
    "lat": 36.0979,
    "lng": -86.5908
  },
  { "name": "Radnor Lake", "lat": 36.0622, "lng": -86.8075 },
  { "name": "Cheekwood Estate & Gardens", "lat": 36.0859, "lng": -86.8733 },
  { "name": "Pegram", "lat": 36.1059, "lng": -87.0583 },
  { "name": "Kingston Springs", "lat": 36.1023, "lng": -87.1047 },
  { "name": "Ashland City", "lat": 36.2742, "lng": -87.0583 },
  { "name": "Clarksville Downtown", "lat": 36.5298, "lng": -87.3595 }
]
